[
  {
    "id": "example-spot",
    "name": "Example Spot",
    "address": "Seattle, WA",
    "lat": 47.6101,
    "lon": -122.3421,
    "rating": 8.0,
    "tags": [
      "ramen",
      "late-night"
    ],
    "notes": "My first saved spot",
    "website": null
  },
  {
    "id": "tavolata-...",
    "name": "Tavolàta",
    "address": "2323 2nd Avenue, Seattle, WA 98121, United States of America",
    "lat": 47.613,
    "lon": -122.345,
    "rating": 8.5,
    "tags": [
      "italian",
      "pasta",
      "date-night"
    ],
    "notes": "Great happy hour.",
    "website": null,
    "city": "Seattle",
    "neighborhood": "Belltown",
    "cuisine": [
      "Italian"
    ],
    "price": 2,
    "wouldReturn": true,
    "visitedAt": "2026-02-18",
    "photo": null
  },
  {
    "id": "din-tai-fung-u-village",
    "name": "Din Tai Fung",
    "address": "2621 NE University Village St, Seattle, WA 98105",
    "lat": 47.6614,
    "lon": -122.2987,
    "city": "Seattle",
    "neighborhood": "University District",
    "cuisine": ["Chinese", "Taiwanese"],
    "tags": ["dumplings", "date-night"],
    "visitedAt": "2026-01-12",
    "price": 2,
    "rating": 9.0,
    "wouldReturn": true,
    "notes": "Soup dumplings are perfect every time.",
    "website": "https://dintaifungusa.com",
    "photo": null
  },
  {
    "id": "pike-place-chowder",
    "name": "Pike Place Chowder",
    "address": "1530 Post Alley, Seattle, WA 98101",
    "lat": 47.6093,
    "lon": -122.3425,
    "city": "Seattle",
    "neighborhood": "Pike Place",
    "cuisine": ["Seafood", "American"],
    "tags": ["chowder", "quick-bite"],
    "visitedAt": "2026-03-01",
    "price": 1,
    "rating": 7.3,
    "wouldReturn": true,
    "notes": "Best clam chowder in the city.",
    "website": null,
    "photo": null
  },
  {
    "id": "canlis-seattle",
    "name": "Canlis",
    "address": "2576 Aurora Ave N, Seattle, WA 98109",
    "lat": 47.6432,
    "lon": -122.3471,
    "city": "Seattle",
    "neighborhood": "Westlake",
    "cuisine": ["New American", "Fine Dining"],
    "tags": ["date-night", "special-occasion"],
    "visitedAt": "2025-12-20",
    "price": 4,
    "rating": 10.0,
    "wouldReturn": true,
    "notes": "Incredible experience. Worth the splurge.",
    "website": "https://canlis.com",
    "photo": null
  },
  {
    "id": "dicks-drive-in-wallingford",
    "name": "Dick's Drive-In",
    "address": "111 NE 45th St, Seattle, WA 98105",
    "lat": 47.6614,
    "lon": -122.3292,
    "city": "Seattle",
    "neighborhood": "Wallingford",
    "cuisine": ["Burgers", "American"],
    "tags": ["late-night", "cheap-eats"],
    "visitedAt": "2026-02-28",
    "price": 1,
    "rating": 5.0,
    "wouldReturn": true,
    "notes": "Classic Seattle. Deluxe with a shake.",
    "website": null,
    "photo": null
  },
  {
    "id": "nirmals-seattle",
    "name": "Nirmal's",
    "address": "106 Occidental Ave S, Seattle, WA 98104",
    "lat": 47.6003,
    "lon": -122.3334,
    "city": "Seattle",
    "neighborhood": "Pioneer Square",
    "cuisine": ["Indian"],
    "tags": ["date-night", "cocktails"],
    "visitedAt": "2026-01-22",
    "price": 3,
    "rating": 7.8,
    "wouldReturn": true,
    "notes": "Modern Indian. Lamb chops are a must.",
    "website": null,
    "photo": null
  },
  {
    "id": "bateau-seattle",
    "name": "Bateau",
    "address": "1040 E Union St, Seattle, WA 98122",
    "lat": 47.6126,
    "lon": -122.3174,
    "city": "Seattle",
    "neighborhood": "Capitol Hill",
    "cuisine": ["Steakhouse", "American"],
    "tags": ["special-occasion"],
    "visitedAt": "2025-11-15",
    "price": 4,
    "rating": 8.8,
    "wouldReturn": true,
    "notes": "Whole-animal butchery. Steak was incredible.",
    "website": null,
    "photo": null
  },
  {
    "id": "paseo-fremont",
    "name": "Paseo",
    "address": "4225 Fremont Ave N, Seattle, WA 98103",
    "lat": 47.6598,
    "lon": -122.3502,
    "city": "Seattle",
    "neighborhood": "Fremont",
    "cuisine": ["Caribbean", "Sandwiches"],
    "tags": ["quick-bite", "lunch"],
    "visitedAt": "2026-02-10",
    "price": 1,
    "rating": 8.2,
    "wouldReturn": true,
    "notes": "Caribbean Roast is legendary. Cash only.",
    "website": null,
    "photo": null
  },
  {
    "id": "kedai-makan-capitol-hill",
    "name": "Kedai Makan",
    "address": "1802 Bellevue Ave, Seattle, WA 98122",
    "lat": 47.6163,
    "lon": -122.3265,
    "city": "Seattle",
    "neighborhood": "Capitol Hill",
    "cuisine": ["Malaysian"],
    "tags": ["late-night"],
    "visitedAt": "2026-01-30",
    "price": 2,
    "rating": 7.0,
    "wouldReturn": true,
    "notes": "Nasi lemak is the move. Great roti too.",
    "website": null,
    "photo": null
  },
  {
    "id": "sushi-kashiba",
    "name": "Sushi Kashiba",
    "address": "86 Pine St, Seattle, WA 98101",
    "lat": 47.6105,
    "lon": -122.3409,
    "city": "Seattle",
    "neighborhood": "Pike Place",
    "cuisine": ["Japanese", "Sushi"],
    "tags": ["date-night", "special-occasion"],
    "visitedAt": "2025-10-05",
    "price": 4,
    "rating": 9.5,
    "wouldReturn": true,
    "notes": "Omakase was transcendent. Book far ahead.",
    "website": null,
    "photo": null
  },
  {
    "id": "salumi-pioneer-sq",
    "name": "Salumi",
    "address": "404 Occidental Ave S, Seattle, WA 98104",
    "lat": 47.5989,
    "lon": -122.3328,
    "city": "Seattle",
    "neighborhood": "Pioneer Square",
    "cuisine": ["Italian", "Sandwiches"],
    "tags": ["lunch", "quick-bite"],
    "visitedAt": "2026-03-05",
    "price": 1,
    "rating": 6.5,
    "wouldReturn": true,
    "notes": "Porchetta sandwich. Long line but worth it.",
    "website": null,
    "photo": null
  },
  {
    "id": "revel-fremont",
    "name": "Revel",
    "address": "403 N 36th St, Seattle, WA 98103",
    "lat": 47.6519,
    "lon": -122.3504,
    "city": "Seattle",
    "neighborhood": "Fremont",
    "cuisine": ["Korean", "Fusion"],
    "tags": ["date-night"],
    "visitedAt": "2026-02-05",
    "price": 2,
    "rating": 5.5,
    "wouldReturn": false,
    "notes": "Solid but not mind-blowing. Rice cakes were good.",
    "website": null,
    "photo": null
  },
  {
    "id": "taqueria-la-fondita",
    "name": "Taqueria La Fondita",
    "address": "6040 Rainier Ave S, Seattle, WA 98118",
    "lat": 47.5442,
    "lon": -122.2865,
    "city": "Seattle",
    "neighborhood": "Rainier Valley",
    "cuisine": ["Mexican"],
    "tags": ["cheap-eats", "late-night"],
    "visitedAt": "2026-01-18",
    "price": 1,
    "rating": 3.5,
    "wouldReturn": true,
    "notes": "Real deal street tacos. Al pastor is the best.",
    "website": null,
    "photo": null
  },
  {
    "id": "facing-east-bellevue",
    "name": "Facing East",
    "address": "1075 Bellevue Way NE, Bellevue, WA 98004",
    "lat": 47.6162,
    "lon": -122.2015,
    "city": "Bellevue",
    "neighborhood": "Downtown Bellevue",
    "cuisine": ["Taiwanese"],
    "tags": ["lunch"],
    "visitedAt": "2026-02-22",
    "price": 2,
    "rating": 6.0,
    "wouldReturn": true,
    "notes": "Beef noodle soup is solid. Big portions.",
    "website": null,
    "photo": null
  },
  {
    "id": "bangrak-market-bellevue",
    "name": "Bangrak Market",
    "address": "12700 SE 38th St, Bellevue, WA 98006",
    "lat": 47.5805,
    "lon": -122.1648,
    "city": "Bellevue",
    "neighborhood": "Eastgate",
    "cuisine": ["Thai"],
    "tags": ["lunch", "quick-bite"],
    "visitedAt": "2026-03-08",
    "price": 1,
    "rating": 2.8,
    "wouldReturn": false,
    "notes": "Pad see ew was just okay. Nothing special.",
    "website": null,
    "photo": null
  },
  {
    "id": "herbfarm-woodinville",
    "name": "The Herbfarm",
    "address": "14590 NE 145th St, Woodinville, WA 98072",
    "lat": 47.7335,
    "lon": -122.1498,
    "city": "Woodinville",
    "neighborhood": "Woodinville",
    "cuisine": ["Fine Dining", "Pacific Northwest"],
    "tags": ["special-occasion"],
    "visitedAt": "2025-09-20",
    "price": 4,
    "rating": 7.5,
    "wouldReturn": false,
    "notes": "Amazing experience, but once is enough.",
    "website": null,
    "photo": null
  },
  {
    "id": "johnnys-dock-tacoma",
    "name": "Johnny's Dock",
    "address": "1900 E D St, Tacoma, WA 98421",
    "lat": 47.2587,
    "lon": -122.4272,
    "city": "Tacoma",
    "neighborhood": "Downtown Tacoma",
    "cuisine": ["Seafood"],
    "tags": ["waterfront"],
    "visitedAt": "2026-01-05",
    "price": 3,
    "rating": 1.5,
    "wouldReturn": false,
    "notes": "Mediocre fish and chips. Nice view though.",
    "website": null,
    "photo": null
  },
  {
    "id": "xian-noodles-u-dist",
    "name": "Xi'an Noodles",
    "address": "5259 University Way NE, Seattle, WA 98105",
    "lat": 47.6666,
    "lon": -122.3131,
    "city": "Seattle",
    "neighborhood": "University District",
    "cuisine": ["Chinese"],
    "tags": ["cheap-eats", "lunch"],
    "visitedAt": "2026-03-10",
    "price": 1,
    "rating": 4.2,
    "wouldReturn": true,
    "notes": "Hand-pulled noodles, spicy cumin lamb.",
    "website": null,
    "photo": null
  },
  {
    "id": "communion-seattle",
    "name": "Communion",
    "address": "3507 S Rainier Ave, Seattle, WA 98144",
    "lat": 47.5724,
    "lon": -122.2926,
    "city": "Seattle",
    "neighborhood": "Columbia City",
    "cuisine": ["Southern", "American"],
    "tags": ["brunch"],
    "visitedAt": "2026-02-16",
    "price": 2,
    "rating": 6.8,
    "wouldReturn": true,
    "notes": "Sunday brunch is top tier. Biscuits and gravy.",
    "website": null,
    "photo": null
  }
]